[{"model": "stations.country", "pk": 1, "fields": {"name": "United States"}}, {"model": "stations.country", "pk": 2, "fields": {"name": "Slovak Republic"}}, {"model": "stations.country", "pk": 3, "fields": {"name": "Chile"}}, {"model": "stations.country", "pk": 4, "fields": {"name": "Spain"}}, {"model": "stations.subnetwork", "pk": 1, "fields": {"name": "Hawaii"}}, {"model": "stations.subnetwork", "pk": 2, "fields": {"name": "Canary Islands"}}, {"model": "stations.subnetwork", "pk": 3, "fields": {"name": "Slovakia"}}, {"model": "stations.subnetwork", "pk": 4, "fields": {"name": "Chile"}}, {"model": "stations.station", "pk": 3, "fields": {"name": "Haleakal\u0101", "code": "HK", "subnetwork": 1, "country": 1, "latitude": 21.43, "longitude": -168.45, "altitude": 3015.0, "address": "", "founded": null}}, {"model": "stations.station", "pk": 4, "fields": {"name": "Mauna Kea", "code": "MK", "subnetwork": 1, "country": 1, "latitude": 20.51, "longitude": -167.54, "altitude": 4195.0, "address": "", "founded": null}}, {"model": "stations.station", "pk": 5, "fields": {"name": "AGO Modra", "code": "AGO", "subnetwork": 3, "country": 2, "latitude": 48.31, "longitude": 17.35, "altitude": 531.0, "address": "", "founded": null}}, {"model": "stations.station", "pk": 6, "fields": {"name": "Kysuck\u00e9 Nov\u00e9 Mesto", "code": "KNM", "subnetwork": 3, "country": 2, "latitude": 49.33, "longitude": 18.735, "altitude": 423.0, "address": "", "founded": null}}, {"model": "stations.station", "pk": 7, "fields": {"name": "Va\u017eec", "code": "VAZ", "subnetwork": 3, "country": 2, "latitude": 49.09, "longitude": 19.94, "altitude": 828.0, "address": "", "founded": null}}, {"model": "stations.station", "pk": 8, "fields": {"name": "Arbor\u00e9tum Tes\u00e1rske Mly\u0148any", "code": "ARB", "subnetwork": 3, "country": 2, "latitude": 48.216, "longitude": 18.85, "altitude": 201.0, "address": "", "founded": null}}, {"model": "stations.station", "pk": 9, "fields": {"name": "Paniri Caur", "code": "PC", "subnetwork": 4, "country": 3, "latitude": -22.336, "longitude": -68.6442, "altitude": 2535.0, "address": "", "founded": null}}, {"model": "stations.station", "pk": 10, "fields": {"name": "San Pedro de Atacama", "code": "SP", "subnetwork": 4, "country": 3, "latitude": -30.1543, "longitude": -67.546, "altitude": 2471.0, "address": "", "founded": null}}, {"model": "stations.station", "pk": 11, "fields": {"name": "Roque de los Muchachos", "code": "LP", "subnetwork": 2, "country": 4, "latitude": 28.76, "longitude": -17.8823, "altitude": 2339.0, "address": "", "founded": null}}, {"model": "stations.station", "pk": 12, "fields": {"name": "Observatorio del Teide", "code": "TE", "subnetwork": 2, "country": 4, "latitude": 28.3004, "longitude": -16.5122, "altitude": 2416.0, "address": "", "founded": null}}, {"model": "stations.logentry", "pk": 1, "fields": {"station": 8, "text": "Ta tu sme boli das tak minule v M\u00e1ji.", "created": "2019-01-12T23:07:02.094", "updated": "2019-01-12T23:07:02.123"}}, {"model": "stations.logentry", "pk": 2, "fields": {"station": 12, "text": "Ideme sem das dakedy v 2020. Ako\u017ee v\u00e1\u017ene. Treba pozrie\u0165 Juliu de Le\u00f3n.", "created": "2019-01-12T23:07:02.094", "updated": "2019-01-12T23:07:18.087"}}]