[{"model": "stations.country", "pk": 1, "fields": {"name": "United States"}}, {"model": "stations.country", "pk": 2, "fields": {"name": "Slovak Republic"}}, {"model": "stations.country", "pk": 3, "fields": {"name": "Chile"}}, {"model": "stations.country", "pk": 4, "fields": {"name": "Spain"}}, {"model": "stations.subnetwork", "pk": 1, "fields": {"name": "Hawaii"}}, {"model": "stations.subnetwork", "pk": 2, "fields": {"name": "Canary Islands"}}, {"model": "stations.subnetwork", "pk": 3, "fields": {"name": "Slovakia"}}, {"model": "stations.subnetwork", "pk": 4, "fields": {"name": "Chile"}}, {"model": "stations.station", "pk": 3, "fields": {"code": "HK", "name": "Haleakal\u0101", "subnetwork": 1, "country": 1, "latitude": 21.43, "longitude": -168.45, "altitude": 3015.0}}, {"model": "stations.station", "pk": 4, "fields": {"code": "MK", "name": "Mauna Kea", "subnetwork": 1, "country": 1, "latitude": 20.51, "longitude": -167.54, "altitude": 4195.0}}, {"model": "stations.station", "pk": 5, "fields": {"code": "AGO", "name": "AGO Modra", "subnetwork": 3, "country": 2, "latitude": 48.31, "longitude": 17.35, "altitude": 531.0}}, {"model": "stations.station", "pk": 6, "fields": {"code": "KNM", "name": "Kysuck\u00e9 Nov\u00e9 Mesto", "subnetwork": 3, "country": 2, "latitude": 49.33, "longitude": 18.735, "altitude": 423.0}}, {"model": "stations.station", "pk": 7, "fields": {"code": "VAZ", "name": "Va\u017eec", "subnetwork": 3, "country": 2, "latitude": 49.09, "longitude": 19.94, "altitude": 828.0}}, {"model": "stations.station", "pk": 8, "fields": {"code": "ARB", "name": "Arbor\u00e9tum Tes\u00e1rske Mly\u0148any", "subnetwork": 3, "country": 2, "latitude": 48.216, "longitude": 18.85, "altitude": 201.0}}, {"model": "stations.station", "pk": 9, "fields": {"code": "PC", "name": "Paniri Caur", "subnetwork": 4, "country": 3, "latitude": -29.56, "longitude": -68.59, "altitude": 2420.0}}, {"model": "stations.station", "pk": 10, "fields": {"code": "SP", "name": "San Pedro de Atacama", "subnetwork": 4, "country": 3, "latitude": -30.1543, "longitude": -67.546, "altitude": 2471.0}}, {"model": "stations.station", "pk": 11, "fields": {"code": "LP", "name": "La Palma", "subnetwork": 2, "country": 4, "latitude": 24.5263, "longitude": -24.123, "altitude": 2300.0}}, {"model": "stations.station", "pk": 12, "fields": {"code": "TE", "name": "Teide", "subnetwork": 2, "country": 4, "latitude": 25.4875, "longitude": -23.5126, "altitude": 2511.0}}]